[
{
"rent_id": 1,
"rent_name": "中正雅居",
"price": 25000,
"create_time": "2025-02-22T03:28:59.000Z",
"address": "台北市中正區忠孝東路一段100號",
"sqm": 30,
"floor": 5,
"pet": 0,
"elevator": 1,
"description": "位於市中心，交通便利，生活機能佳。",
"lng": "121.5198839",
"lat": "25.0324049",
"member_name": "張大明",
"rent_img_url": "uploads/rent_images/room_01_1.jpg",
"rent_is_primary": 1,
"area": "中正",
"building_type": "電梯大樓"
},
{
"rent_id": 13,
"rent_name": "中正豪華大樓",
"price": 40000,
"create_time": "2025-02-22T03:28:59.000Z",
"address": "台北市中正區青島東路5號",
"sqm": 45,
"floor": 15,
"pet": 0,
"elevator": 1,
"description": "高級社區，設施完善，臨近政府機關。",
"lng": "121.5198839",
"lat": "25.0324049",
"member_name": "郭怡宣",
"rent_img_url": "uploads/rent_images/room_13_1.jpg",
"rent_is_primary": 1,
"area": "中正",
"building_type": "電梯大樓"
},
{
"rent_id": 2,
"rent_name": "大同舒適套房",
"price": 18000,
"create_time": "2025-02-22T03:28:59.000Z",
"address": "台北市大同區南京西路200號",
"sqm": 25,
"floor": 3,
"pet": 1,
"elevator": 0,
"description": "鄰近商圈，環境安靜，適合單身或小家庭。",
"lng": "121.5130417",
"lat": "25.0634243",
"member_name": "李小華",
"rent_img_url": "uploads/rent_images/room_02_1.jpg",
"rent_is_primary": 1,
"area": "大同",
"building_type": "公寓"
},
{
"rent_id": 14,
"rent_name": "大同藝術家居",
"price": 27000,
"create_time": "2025-02-22T03:28:59.000Z",
"address": "台北市大同區延平北路三段80號",
"sqm": 30,
"floor": 4,
"pet": 1,
"elevator": 0,
"description": "藝術氛圍濃厚，附近有多家藝廊。",
"lng": "121.5130417",
"lat": "25.0634243",
"member_name": "王大名",
"rent_img_url": "uploads/rent_images/room_14_1.jpg",
"rent_is_primary": 1,
"area": "大同",
"building_type": "公寓"
},
{
"rent_id": 4,
"rent_name": "松山溫馨小窩",
"price": 22000,
"create_time": "2025-02-22T03:28:59.000Z",
"address": "台北市松山區八德路四段50號",
"sqm": 28,
"floor": 2,
"pet": 1,
"elevator": 0,
"description": "近公園，環境清幽，適合喜愛寧靜的住戶。",
"lng": "121.5575876",
"lat": "25.0599910",
"member_name": "郭怡萱",
"rent_img_url": "uploads/rent_images/room_04_1.jpg",
"rent_is_primary": 1,
"area": "松山",
"building_type": "公寓"
},
{
"rent_id": 5,
"rent_name": "大安時尚宅",
"price": 35000,
"create_time": "2025-02-22T03:28:59.000Z",
"address": "台北市大安區信義路三段80號",
"sqm": 35,
"floor": 10,
"pet": 0,
"elevator": 1,
"description": "現代設計風格，臨近商業區，生活便利。",
"lng": "121.5434446",
"lat": "25.0267701",
"member_name": "郭怡宣",
"rent_img_url": "uploads/rent_images/room_05_1.jpg",
"rent_is_primary": 1,
"area": "大安",
"building_type": "電梯大樓"
},
{
"rent_id": 6,
"rent_name": "萬華經濟實惠房",
"price": 15000,
"create_time": "2025-02-22T03:28:59.000Z",
"address": "台北市萬華區西園路一段120號",
"sqm": 20,
"floor": 4,
"pet": 1,
"elevator": 0,
"description": "價格實惠，附近有夜市，生活機能完善。",
"lng": "121.4979858",
"lat": "25.0285899",
"member_name": "郭怡宣",
"rent_img_url": "uploads/rent_images/room_06_1.jpg",
"rent_is_primary": 1,
"area": "萬華",
"building_type": "公寓"
},
{
"rent_id": 7,
"rent_name": "信義景觀套房",
"price": 28000,
"create_time": "2025-02-22T03:28:59.000Z",
"address": "台北市信義區松高路10號",
"sqm": 32,
"floor": 12,
"pet": 0,
"elevator": 1,
"description": "高樓層視野佳，臨近信義商圈。",
"lng": "121.5716697",
"lat": "25.0306208",
"member_name": "王大名",
"rent_img_url": "uploads/rent_images/room_07_1.jpg",
"rent_is_primary": 1,
"area": "信義",
"building_type": "社區"
},
{
"rent_id": 8,
"rent_name": "士林便利公寓",
"price": 20000,
"create_time": "2025-02-22T03:28:59.000Z",
"address": "台北市士林區文林路300號",
"sqm": 27,
"floor": 3,
"pet": 1,
"elevator": 0,
"description": "近士林夜市，交通方便，生活機能強。",
"lng": "121.5508473",
"lat": "25.1254670",
"member_name": "張大明",
"rent_img_url": "uploads/rent_images/room_08_1.jpg",
"rent_is_primary": 1,
"area": "士林",
"building_type": "公寓"
},
{
"rent_id": 9,
"rent_name": "北投溫泉宅",
"price": 26000,
"create_time": "2025-02-22T03:28:59.000Z",
"address": "台北市北投區中山路50號",
"sqm": 33,
"floor": 5,
"pet": 0,
"elevator": 1,
"description": "鄰近溫泉區，環境優美，適合養生。",
"lng": "121.5177992",
"lat": "25.1480682",
"member_name": "李小華",
"rent_img_url": "uploads/rent_images/room_09_1.jpg",
"rent_is_primary": 1,
"area": "北投",
"building_type": "社區"
},
{
"rent_id": 10,
"rent_name": "內湖科技園區套房",
"price": 30000,
"create_time": "2025-02-22T03:28:59.000Z",
"address": "台北市內湖區瑞光路200號",
"sqm": 34,
"floor": 7,
"pet": 0,
"elevator": 1,
"description": "臨近科技園區，適合上班族，設備齊全。",
"lng": "121.5923828",
"lat": "25.0837062",
"member_name": "王大明",
"rent_img_url": "uploads/rent_images/room_10_1.jpg",
"rent_is_primary": 1,
"area": "內湖",
"building_type": "電梯大樓"
},
{
"rent_id": 11,
"rent_name": "南港新興公寓",
"price": 24000,
"create_time": "2025-02-22T03:28:59.000Z",
"address": "台北市南港區忠孝東路七段150號",
"sqm": 29,
"floor": 6,
"pet": 1,
"elevator": 0,
"description": "新興發展區域，未來潛力大。",
"lng": "121.6097573",
"lat": "25.0360093",
"member_name": "郭怡萱",
"rent_img_url": "uploads/rent_images/room_11_1.jpg",
"rent_is_primary": 1,
"area": "南港",
"building_type": "社區"
},
{
"rent_id": 12,
"rent_name": "文山自然景觀宅",
"price": 21000,
"create_time": "2025-02-22T03:28:59.000Z",
"address": "台北市文山區木柵路三段100號",
"sqm": 31,
"floor": 2,
"pet": 1,
"elevator": 0,
"description": "靠近山區，空氣清新，適合喜愛自然的住戶。",
"lng": "121.5736082",
"lat": "24.9885793",
"member_name": "郭怡宣",
"rent_img_url": "uploads/rent_images/room_12_1.jpg",
"rent_is_primary": 1,
"area": "文山",
"building_type": "公寓"
}
]